분류,상호,도로명주소,지번주소,전화번호,위치,좌석수,이용시간,휴무일,주차장,메뉴,업태,코스,경도,위도,데이터기준일자
골목투어,(주)수락산시로,대구광역시 중구 동성로2길 27-1(삼덕동1가),대구광역시 중구 삼덕동1가 11-6,053-421-5554,금융결재원-야시골목,42석 (1실),12:00-24:00,없음,유료주차장,"스끼야끼 20,000 라멘 10,000",일식,3코스,128.596149,35.86718506,2020-01-14
맛락|골목투어|묵은맛명가,8번식당,대구광역시 중구 서성로13길 8(서성로1가),대구광역시 중구 서성로1가 59-1,053-255-0167,서성로 돼지골목 안,88석,00:00~24:00,없음,유료주차장,"8번정식 9,000 수육 22,000(소) 순대 22,000(소)",한식,1코스,128.5868833,35.87235875,2020-01-14
모범음식점,가야골 가마솥 한우국밥,"대구광역시 중구 중앙대로 464-8, 1층 (북성로1가)",,053-952-5700,,60석(1실),09:00~22:00,"설,추석명절",없음,"국밥 7,000 닭계장 6,000",한식,,128.5935768,35.8658874,2020-01-14
맛락,가창식당,대구광역시 중구 종로 11-9(계산동2가),,053-255-0516,염매시장 안,14석,09:00~20:00,첫째 셋째 일요일,유료주차장,"돼지국밥 6,500 수육 15,000~25,000",한식,,128.5914228,35.86689141,2020-01-14
골목투어|묵은맛명가|모범음식점,가창큰나무집약령시점,대구광역시 중구 남성로 25 (남성로),대구광역시 중구 남성로51-6,053-256-0709,약령시전시관 2층,98석,10:00- 21:00,없음,유료주차장,"궁중약백숙 13,000",한식,2코스,128.5897275,35.86808213,2020-01-14
맛락,갈비탕집,대구광역시 중구 국채보상로139길 38(동인동3가),,053-010-2166,중구청 옆,45석,11:00~22:00,매주 일요일,유료주차장,"갈비탕 9,000 갈비전골 25,000(중)/35,000(대)",한식,,128.6065228,35.87073671,2020-01-14
맛락,강구,대구광역시 중구 서성로 25-5(계산동1가),,053-253-8944,매일신문사 길 건너편 오래된 골목,120석(1실),09:30~21:30,첫째 셋째 일요일,유료주차장,"생대구탕 14,000(1인) 생아구수육 40,000(小)/50,000(大)",한식,,128.586743,35.86896042,2020-01-14
모범음식점,강산면옥(교동점),"대구광역시 중구 교동길 27-8, 3층 (교동)",,053-425-1199,,160석(2실),10:00-21:00,"설, 추석 명절",없음,"냉면 8,500 갈비탕 11,000",별식,,128.5964,35.873639,2020-01-14
맛락|묵은맛명가|모범음식점,개정,대구광역시 중구 동성로3길 52(삼덕동1가),대구광역시 중구 삼덕동1가21-25?,053-424-7051,자이유에서 노보텔쪽 100m,150석(1실),11:00~21:30,명절,유료주차장,"육회비빔밥 12,000 물비빔면 10,000",한식,,128.5979854,35.86766978,2020-01-14
모범음식점,개정동성로점,"대구광역시 중구 동성로 36-6, 2층 (동성로2가)",,053-422-0366,,74석(1실),11:00-22:00,"설, 추석 명절",없음,"냉면 8,500 비빔밥 9,000",한식,,128.596501,35.870055,2020-01-14
맛락|골목투어,거창식당,대구광역시 중구 서성로 25-7(계산동1가),대구광역시 중구 계산동1가80,053-253-6699,매일신문사 길 건너편 오래된 골목,84석(3실),09:00-22:00,명절,7대,"밀복어탕 14,000 웰빙샤브샤브 18,000 불고기 12,000",한식,3코스,128.5865919,35.86899006,2020-01-14
모범음식점,고전 한정식,"대구광역시 중구 동덕로 112-1, 1층 (삼덕동2가)",,053-427-6567,,56석(4실),09:00-21:00,"설, 추석 명절",없음,"한정식 8,000",한식,,128.603267,35.864622,2020-01-14
맛락|골목투어|모범음식점,고향뜰,대구광역시 중구 약령길 78-2(수동),대구광역시 중구 수동 31-2,053-257-6700,곽병원 맞은편 대신증권 뒷골목,88석(3실),10:00-22:00,명절,유료주차장,"숫총각버섯탕 10,000 능이버섯탕 13,000 불고기버섯전골 28,000(小)/38,000(中)/48,000(大)",한식,3코스,128.5958952,35.86860548,2020-01-14
골목투어,관음,대구광역시 중구 경상감영1길 53 (대안동),대구광역시 중구 대안동 2-1,053-255-2775,대안성당에서 30m,80,07:00-21:00,"설,추석명절",유료주차장,"추어탕 7,000",한식,1코스,128.5927474,35.87337779,2020-01-14
맛락|묵은맛명가|모범음식점,교동따로식당,대구광역시 중구 경상감영1길 11(포정동),대구광역시 중구 전동 27-1,053-254-8923,경상감영공원 근처,130석(4실),24시간,없음,유료주차장,"따로국밥 8,000 소고기국밥 8,000",한식,,128.5928746,35.87150803,2020-01-14
모범음식점,국대 닭곱새,대구광역시 중구 동성로5길 45(삼덕1가),,053-254-1644,,60석,11:00~22:00,연중무휴,없음,"닭곱새: 9,000원",한식,,128.5970876,35.8676992,2020-01-14
모범음식점,국일삼계탕,"대구광역시 중구 달성로 73, 1층 (시장북로)",,053-559-9229,,70석(1실),12:00-19:00,매주 일요일,유료주차장,"삼계탕 11,000",한식,,128.581944,35.871727,2020-01-14
맛락|골목투어|묵은맛명가|모범음식점,국일생갈비,대구광역시 중구 국채보상로 492(동산동),대구광역시 중구 동산동 106-1,053-254-5115,섬유회관 옆,160석(9실),11:30~22:00,명절,유료주차장,"한우생갈비 27,000(150g) 한우불고기 15,000(250g)",한식,3코스,128.5845197,35.8704232,2020-01-14
맛락|골목투어|묵은맛명가|모범음식점,국일식당,대구광역시 중구 태평로 172(태평로1가),대구광역시 중구 태평로1가 4-1,053-424-5820,대구역 맞은편 귀금속거리입구,100석 (2실),11:00-22:00,없음,유료주차장,"돼지갈비 6,500",한식,3코스,128.5964077,35.87456198,2020-01-14
모범음식점,국화정원,대구광역시 중구 동덕로 127(삼덕2가),,053-428-8800,,100석(6실),10:00~22:00,매주 일요일,유료주차장 이용,"샤브한정식: 20,000원",한식,,128.603,35.8660323,2020-01-14
맛락,굿또스시,대구광역시 중구 달구벌대로447길 37(삼덕동3가),,053-255-3534,삼덕초등학교 인근,10석,12:00~22:00(쉬는시간 15:00~18:00),명절,유료주차장,"평일 오마카세(코스) 25,000(런치)/35,000(디너) 주말 오마카세(코스) 35,000(런치)/55,000(디너)",일식,,128.6077011,35.86408799,2020-01-14
모범음식점,궁채,"대구광역시 중구 달구벌대로 2085, 동아쇼핑10층 (덕산동)",,053-255-2282,,84석(1실),10:00~20:30,"설, 추석 명절",유료주차장,"한식 10,000",한식,,128.591853,35.866317,2020-01-14
맛락,근대골목단팥빵 커피인코나,대구광역시 중구 남성로 60(남성로),,053-423-1883,약전골목 입구,30석,08:00-22:00,명절당일,유료주차장,"단팥빵 2,000 생크림단팥빵 2,500",디저트,,128.5903444,35.86780707,2020-01-14
맛락,낙영식당별관,대구광역시 중구 동덕로40길 15(동인동1가),,053-423-8330,중구청-동인네거리,174석(5실),10:00-21:30,명절 각각 이틀,23대,"찜갈비 (호주산,미국산): 18,000 (한우): 28,000 찌개: 7,000",찜갈비,,128.60594,35.8718361,2020-01-14
맛락|묵은맛명가,낙영찜갈비,대구광역시 중구 동덕로36길 9-17(동인동1가),,053-423-3330,중구청-동인네거리,204석,10:00-22:00,명절 각각 이틀,유료주차장,"찜갈비 (호주산,미국산): 18,000 (한우): 28,000 찌개: 7,000",찜갈비,,128.6049424,35.8712706,2020-01-14
묵은맛명가|모범음식점,낙원순두부,"대구광역시 중구 국채보상로123길 16, 2층 (문화동)",,053-425-7167,,,,,,순두부찌개,한식,,128.597565,35.871415,2020-01-14
골목투어|묵은맛명가,남문납작만두,대구광역시 중구 중앙대로61길 28(남산동),대구광역시 중구 남산동 605-10,053-257-1440,남문시장 입구,36석,09:00-21:00,명절,없음,"남문납작만두 3,500 우동 3,500",별식,5코스,128.5905952,35.86045509,2020-01-14
맛락,남문주자,대구광역시 중구 중앙대로61길 14(남산동),,053-257-0608,경북여고 맞은 편 대한내과의원 건물 옆 골목 안,56석(2실),11:30~22:00,매주 수요일,2대,"양념갈비 9,000(200g) 불고기전골 20,000(中)/30,000(大)",한식,,128.5911857,35.86033095,2020-01-14
묵은맛명가,남산동이영옥할매보쌈,대구광역시 중구 명덕로35길 106 (남산동),,053-252-3213,,,,,,"보쌈, 국밥",한식,,128.5901,35.861196,2020-01-14
골목투어|묵은맛명가,녹양,대구광역시 중구 중앙대로 439-1 (향촌동),대구광역시 중구 향촌동74-5,053-257-1796,대보백화점 동편,100석,12:00-24:00,"설,추석명절",유료주차장,"생고기 30,000",한식,1코스,128.5940156,35.87246163,2020-01-14
맛락,다금예전칼국수,대구광역시 중구 국채보상로102길 5-35(계산동1가),,053-255-1515,섬유회관 인근,100석(3실),09:00~21:00,명절,유료주차장,"영양칼국수 7,000 찹쌀수제비 8,000 코다리찜 20,000",별식,,128.5861066,35.86974768,2020-01-14
맛락|골목투어,다전칼국수,대구광역시 중구 종로 24-1(종로2가),대구광역시 중구 종로2가 72-1,053-256-7722,동아쇼핑 별관 주차장 맞은편,44석,11:00-21:00,매주 요일,유료주차장,"손칼국수 6,000 들깨칼국수 7,000 버섯전 10,000",별식,2코스,128.5920388,35.86801234,2020-01-14
맛락,달팽이식당,대구광역시 중구 중앙대로81길 46(종로1가),,070-8279-2952,종로골목 안,12석,"12:00~22:00(쉬는시간 15:00~17:30), 목요일 12:00~15:00",매주 일요일,유료주차장,"모밀한판 7,000 우동한판 7,000",별식,,128.5911889,35.86968667,2020-01-14
맛락,닭한끼,대구광역시 중구 달구벌대로 2232-22(대봉동),,053-285-2888,방천시장 안,34석,12:00~22:00,명절,유료주차장,"오리지날찜닭 23,000 대갈비찜닭 29,000 크림찜닭 22,000",한식,,128.6067707,35.86115439,2020-01-14
모범음식점,대구전통따로,"대구광역시 중구 국채보상로 563-1, 1층 (전동)",,053-257-1476,만경관 옆,50석(2실),24시간,없음,없음,"특따로국밥: 8,000 따로국밥: 7,000",한식,,128.592411,35.870967,2020-01-14
맛락|골목투어,대동면옥,대구광역시 중구 국채보상로102길 5-9(계산동1가),대구광역시 중구 계산동1가 13-1,053-255-4450,섬유회관 옆 우리은행 건너편 골목 안,100석(3실),11:00-20:00(쉬는시간 15:00~16:00),첫째 셋째 일요일(4-8월은 휴무없음),유료주차장,"물냉면 9,000 비빔냉면 9,000 갈비탕 10,000",별식,3코스,128.5857286,35.86997245,2020-01-14
맛락,대한뉴스,대구광역시 중구 달구벌대로446길 6(대봉동),대구광역시 중구 대봉동 13-9,053-423-3990,방천시장 안,280석(4실),12:00-24:00,없음,유료주차장,"특숙성등심 18,000 된장찌개 5,000",한식,,128.6058124,35.86202788,2020-01-14
묵은맛명가,덕영대반점,대구광역시 중구 서성로 96 (수창동),,053-257-7386,,,,,,해삼탕,중식,,128.588086,35.875206,2020-01-14
맛락,도쿄다이닝,대구광역시 중구 동성로2길 4-5(봉산동),,053-424-9191,반월당 통신골목 쪽 위치,36석(2실),12:00~21:00,매주 목요일,-,"함바그스테이크 10,500 샐러드우동 9,000 돈카츠 9,000",양식,,128.5964015,35.8674152,2020-01-14
골목투어,동곡막걸리,대구광역시 중구 달구벌대로 2224-2(대봉동),대구광역시 중구 대봉동 12-7,053-422-5813,방천시장 근처,40석,16:00-01:00,없음,없음,"명태포전 10,000 홍어 50,000",술한잔하기 좋은 집,4코스,128.60615,35.86216754,2020-01-14
골목투어,동명,대구광역시 중구 중앙대로 398-1(남일동),대구광역시 중구 삼덕동1가 22-12,053-424-7792,로데오거리클럽골목,20석,17:00-05:00,"1,3째일요일",유료주차장,"오코노미야끼 16,000",일식,3코스,128.5985658,35.86743225,2020-01-14
맛락,동원찜갈비,대구광역시 중구 동덕로36길 9-4(동인동1가),,053-427-1430,중구청-동인네거리,80석(1실),09:30-22:00,없음,6대,"찜갈비 (호주산,미국산): 18,000 (한우): 28,000 찌개: 7,000",찜갈비,,128.6051721,35.8705962,2020-01-14
묵은맛명가,동흥반점,대구광역시 중구 국채보상로143길 6 (동인동4가),,053-424-3247,,,,,,"짜장면, 짬뽕",중식,,128.608827,35.869092,2020-01-14
모범음식점,두찜 동성로점,"대구광역시 중구 동성로2길 50-18, 2층 (삼덕동1가)",,053-428-8803,,108석(1실),24시간,연중무휴,없음,"감자탕 22,000 해장국 7,000",한식,,128.597589,35.867854,2020-01-14
묵은맛명가,둥굴관,대구광역시 중구 국채보상로131길 50(동인동),대구광역시 중구 동인동1가 284,053-424-2826,시청 뒤 시티맨션 상가 앞,120석 (2실),9:00- 21:00,"2,4째일요일",유료주차장,"복어탕 7,000 모듬회 15,000",한식,,128.6024761,35.87199401,2020-01-14
맛락,뜨돈,대구광역시 중구 달구벌대로 2109-30(덕산동),,053-257-1379,반월당 덕산빌딩 근처,42석,11:30~21:30,명절,유료주차장,"뜨돈돈까스 8,900 뜨돈치즈까스 9,900",양식&외국식,,128.5941004,35.86661679,2020-01-14
골목투어,라루체,"대구광역시 중구 동덕로 141, 2층 (삼덕동2가)",대구광역시 중구 삼덕동2가 45,053-606-0733,경대병원 맞은편,35,12:00-22:00,매주일요일,지하주차장,"수제버거 13,000",양식&외국식,4코스,128.6034711,35.86719925,2020-01-14
골목투어,루시드,대구광역시 중구 동성로4길 94 (공평동),대구광역시 중구 공평동70-2,053-422-7020,동성로까페거리골목안,56,12:00-23:00,연중무휴,유료주차장,"녹차빙수 13,000",별식,3코스,128.599667,35.8688477,2020-01-14
맛락|골목투어,마당갈비,대구광역시 중구 약령길 33-40,대구광역시 중구 수창동 115,053-255-2324,매일신문사 근처,80석(1실),10:00-22:00,매주 일요일,5대,"돼지갈비 9,000 갈비찜 10,000",한식,1코스,128.5875383,35.86868613,2020-01-14
모범음식점,마시뜰(계산점),"대구광역시 중구 서성로 6(계산동2가, 지상1층)",,053-252-1588,,70석(3실),10:00~22:00,"설,추석명절",없음,"갈낙탕: 12,000원",한식,,128.5874319,35.8671204,2020-01-14
모범음식점,만리장성,대구광역시 중구 명륜로 168(대봉동),대구광역시 중구 대봉동 55-39,053-424-1168,대봉동 국민은행 출상소 인근,154석 (6실),11:30-21:30,"설,추석명절",20대,"탕수육 25,000 유산슬 40,000",중식,,128.60248,35.86050439,2020-01-14
골목투어,명동통닭,대구광역시 중구 동성로12길 59 (동문동),대구광역시 중구 동문동13-22,053-424-0591,노보텔뒤편,30석,11:30-21:00,매주일요일,5대,"야채찜닭 16,000",한식,3코스,128.5990025,35.87120313,2020-01-14
묵은맛명가|모범음식점,명성숯불갈비,"대구광역시 중구 국채보상로131길 42, 1층 (동인동1가)",,053-427-9820,,,,,,갈비살,한식,,128.602383,35.871699,2020-01-14
모범음식점,묵돌이생고기,대구광역시 중구 종로 45-26(전동),,053-257-7285,,72석,17:00~02:00,매주 일요일,100대,"생고기: 45,000원~",식육(숯불구이),,128.5920789,35.8680597,2020-01-14
골목투어,미도다방,대구광역시 중구 진골목길 14(종로2가),대구광역시 중구 종로2가 66-1,053-252-9999,진골목입구,113,09:00- 22:00,연중무휴,유료주차장,"커피 2,000 쌍화차 3,500 약차 3,000",차,2코스,128.5925075,35.86825347,2020-01-14
맛락|골목투어|모범음식점,미래징기스칸,대구광역시 중구 국채보상로 571-2(전동),대구광역시 중구 전동3-2,053-753-5292,경상감영공원 근처,60석(4실),11:00-22:00,명절,유료주차장,"징기스칸전골 12,000",한식,1코스,128.5931379,35.87134551,2020-01-14
맛락|골목투어|묵은맛명가|모범음식점,미림,대구광역시 중구 국채보상로93길 6(대신동),대구광역시 중구 대신동 138,053-554-6636,서문교회 옆,50석,11:30~20:30,"매주 일요일, 명절",유료주차장,"돈가스 7,000 오뎅전골 15,000/25,000",양식&외국식,3코스,128.5811388,35.87091383,2020-01-14
맛락,미미네집,대구광역시 중구 중앙대로81길 56,,,,24석,18:00~02:00,-,-,"제주급냉삼겹살 9,000 김치말이국수 4,500",별식,,128.5905687,35.8696717,2020-01-14
맛락|골목투어|묵은맛명가,미성당,대구광역시 중구 남산로 75-1(남산동),대구광역시 중구 남산동 104-3,053-255-0742,남산초등학교 건너편,36석,10:30-21:00,-,유료주차장,"납작만두 3,500(小)/4,000(大) 쫄면 4,500",별식,1코스,128.5821898,35.86321998,2020-01-14
모범음식점,미원회식당,"대구광역시 중구 중앙대로 464-8, 1층 (북성로1가)",,053-425-9163,,68석(6실),10:00~22:00,"설, 추석명절",유료주차장,"회초밥 5,000",일식,,128.595205,35.874288,2020-01-14
골목투어,미진분식,대구광역시 중구 동성로 6-1 (동성로3가),대구광역시 중구 동성로3가91-6,053-425-1120,중앙파출소에서 대백방향,50석,09:00~22:00,둘째주월요일,유료주차장,"김밥 3,700",별식,3코스,128.5942801,35.86742794,2020-01-14
맛락,바라지레스토랑,"대구광역시 중구 동성로 73, 2층(동성로1가)",,053-425-3242,교동귀금속거리 근처,52석,10:00~22:00,명절,-,"치킨빈다루 11,500 탄두리치킨 10,000",양식&외국식,,128.5956904,35.87338684,2020-01-14
맛락,바스코,대구광역시 중구 동성로4길 100(공평동),,053-422-9354,공평네거리 인근,90석,12:00~21:30,매주 화요일,-,"불고기퀘사디아 12,900 바스코필라프 12,900 포크치미창가 14,900",양식&외국식,,128.5997672,35.86919339,2020-01-14
맛락,밥을짓다,대구광역시 중구 중앙대로 406-13(남일동),,053-431-8988,CGV대구아카데미점 근처,80석,11:30~22:30,-,유료주차장,"코스 16,000~25,000 평일런치 14,000",한식,,128.5946319,35.86957049,2020-01-14
맛락|골목투어,방천가족족발,대구광역시 중구 달구벌대로446길 7-16(대봉동),,053-254-1481,방천시장 내 위치,40석,"15:00~24:00(금,토요일 15:00~01:00)",-,없음,"가족족발 20,000~35,000 가족 불족발 25,000",한식,,128.60669,35.8616988,2020-01-14
골목투어,벙글벙글,대구광역시 중구 동성로3길 102 (공평동),대구광역시 중구 공평동14-23,053-424-7745,2.28공원앞,50,08:00-22:00,"설,추석명절",유료주차장,"육개장 6,500",한식,4코스,128.5986313,35.86980859,2020-01-14
맛락|묵은맛명가,벙글벙글,대구광역시 중구 동덕로36길 9-12(동인동1가),,053-424-6881,중구청-동인네거리,120석(3실),10:00-22:00,연중무휴,20대,"찜갈비 (호주산,미국산): 18,000 (한우): 28,000 찌개: 7,000",찜갈비,,128.6051652,35.8710018,2020-01-14
골목투어,베이글 닥터,대구광역시 중구 달구벌대로 2179 (삼덕동2가),대구광역시 중구 삼덕동2가 192-4,053-421-6636,경대병원역 1번출구,24,07:00-20:00,매주일요일,유료주차장,"햄에그치즈 샌드위치 4,800",양식&외국식,4코스,128.6017359,35.86365839,2020-01-14
맛락|모범음식점,벽돌집,대구광역시 중구 동덕로14길 13(대봉동),대구광역시 중구 대봉1동 18-1,053-421-6800,대봉1동주민센터 앞,100석(5실),11:00~22:00,매주 일요일,5대,"돌솥곤드래밥정식12,000 코다리찜정식 10,000",한식,,128.6047261,35.861139,2020-01-14
골목투어,복주,대구광역시 중구 명륜로23길 101(남산동),대구광역시 중구 남산동 911-5,053-422-5821,반월당 하나은행 뒷편,20석,17:00-23:00,매주 일요일,유료주차장,"소막창 12,000 소갈비살 11,000",술한잔하기 좋은 집,4코스,128.5946243,35.8644388,2020-01-14
모범음식점,본죽앤 비빔밥(동성로점),"대구광역시 중구 동성로 57, 2층 (동성로2가)",,053-255-8009,,15석,09:30-21:30,"설, 추석명절",없음,"죽 7,000 비빔밥 7,000",한식,,128.595573,35.871938,2020-01-14
맛락|묵은맛명가,봉산찜갈비,대구광역시 중구 동덕로36길 9-18(동인동1가),,053-425-4203,중구청-동인네거리,150석(1실),10:00-22:00,명절 각각 이틀,20대,"찜갈비 (호주산,미국산): 18,000 (한우): 28,000 찌개: 7,000",찜갈비,,128.6048786,35.8708906,2020-01-14
맛락|묵은맛명가,부산안면옥,대구광역시 중구 국채보상로 125길 4-1(공평동),대구광역시 중구 공평동 8-5,053-424-9389,노보텔 옆,150석(3실),11:00-21:00,4.1-추석까지만 영업,유료주차장,"평양식냉면 9,000 만두국 6,000",별식,,128.5989501,35.87063522,2020-01-14
골목투어,부엉이,대구광역시 중구 북성로 104-14 (향촌동),대구광역시 중구 향촌동18,053-252-3151,대구문학관향촌문화관 뒤,40,15:00-22:00,연중무휴,유료주차장,"생고기 25,000",한식,1코스,128.5937457,35.8738007,2020-01-14
맛락,블랙타코앤그릴,대구광역시 중구 공평로8길 5(삼덕동2가),,053-426-2268,삼덕119안전센터 건너편,96석,11:00~12:00(금-토 11:00~02:00)(쉬는시간 15:00~16:00),-,-,"새우그랑데파히타 35,000 그랑데파히타 36,000 감바스알리오 13,000",양식&외국식,,128.599526,35.86658076,2020-01-14
맛락,삐에뜨라,"대구광역시 중구 약령길 45(남성로, 지상1층)",,053-742-4819,현대백화점 뒷편 약전골목에 위치,36석(1실),12:00~21:30(쉬는시간 평일15:00~17:00/주말 15:30~17:30),"매주 월요일, 명절",유료주차장,"한우안심스테이크 43,000 라자냐 20,000 뇨끼 20,000 꽃게리조또 18,000",양식,,128.5891101,35.868402,2020-01-14
모범음식점,사계절 한방굴국밥,"대구광역시 중구 약령길 57, 1층 (수동)",,053-424-5038,,70석(1실),09:00-21:30,매주 일요일,유료주차장,"굴국밥: 6,000원",한식,,128.58926,35.868863,2020-01-14
맛락|골목투어,산,대구광역시 중구 남성로 53-1(종로2가),,053-257-9998,중앙 파출소 길 건너 약전 골목 쪽에 위치,130석(12실),11:00~22:00,명절당일,유료주차장,"곤드레돌솥밥정식 15,000 행복품은산(코스) 29,000 젊음이넘치는산(코스) 70,000(예약)",한식,,128.5926386,35.8675825,2020-01-14
맛락,산호찜갈비,대구광역시 중구 동덕로36길 9-9(동인동1가),,053-422-2523,중구청-동인네거리,100석(1실),10:00-22:00,"매월 1,3째주 월요일",4대,"찜갈비 (호주산,미국산): 18,000 (한우): 28,000 찌개: 7,000",찜갈비,,128.6048786,35.8708906,2020-01-14
골목투어,삼삼구이초밥,대구광역시 중구 중앙대로 354-42(남산동),대구광역시 중구 남산동921-5,053-425-3392,반월당역3번출구,60,12::00-23:30,"2,4일요일휴무",유료주차장,"미주구리 20,000",일식,4코스,128.5948419,35.86441606,2020-01-14
맛락,삼삼구이초밥,대구광역시 중구 명륜로23길 100-1,,053-427-3392,대구초등학교 근처,,12:00~23:00,둘째 넷째 일요일,,"생선초밥+우동 8,000 미주구리 25,000 회덮밥 8,000",일식,,128.594848,35.86442286,2020-01-14
맛락|묵은맛명가|모범음식점,상주식당,"대구광역시 중구 국채보상로 598-1, 1층(동성로2가)",대구광역시 중구 동성로2가 54-1,053-425-5924,대구백화점 주차장 출구 골목 안,80석(6실),09:00-21:00,"12~2월, 명절",유료주차장,"추어탕 8,000",한식,,128.5962148,35.87019175,2020-01-14
맛락|골목투어,서영,대구광역시 중구 약령길 33-8(계산동2가),대구광역시 중구 계산동2가 31-2,053-253-1199,매일신문사 바로 옆 골목 안,40석(3실),11:00-21:00,매주 일요일,유료주차장,"홍합밥 8,000(2인 이상) 녹두전 8,000",한식,2코스,128.5885905,35.86816839,2020-01-14
맛락,선댄스팜,대구광역시 중구 동덕로8길43(대봉동),대구광역시 중구 대봉1동 31-83,053-255-9625,김광석거리 근처,45석,11:00-23:30,"매주 월요일, 명절",5대,"아메리카노 4,500/5,000 베이컨 샌드위치: 8,000 시금치루꼴라브레드 13,000",별식,,128.6053907,35.8603326,2020-01-14
묵은맛명가,성주,대구광역시 중구 큰장로26안길 10 (대신동),,053-254-9545,,,,,,"국밥, 수육",한식,,128.579243,35.868194,2020-01-14
맛락|묵은맛명가,성주숯불갈비,대구광역시 중구 국채보상로99길 22(동산동),대구광역시 중구 동산동15-1,053-255-6851,섬유회관맞은편 신발골목100m우측,96석(6실),10:00-22:00,명절,10대,"생갈비 25,000(220g) 갈비찜 25,000",한식,,128.5836143,35.8716607,2020-01-14
맛락,세연전통콩국,대구광역시 중구 명덕로 173(남산동),,053-257-9915,명덕역(3호선) 2번 출구에서 140미터 직진,70석,10:00~04:00,매주 화요일,-,"콩국수 4,500원 돈까스 7,500원",한식,,128.5871093,35.8612519,2020-01-14
맛락,수복찜갈비,"대구광역시 중구 동덕로38길 15, 1층(동인동1가)",,053-423-8667,중구청-동인네거리,56석(2실),10:00-22:00,둘째 월요일,7대,"찜갈비 (호주산,미국산): 18,000 (한우): 28,000 찌개: 7,000",찜갈비,,128.6054425,35.8715051,2020-01-14
모범음식점,시안,"대구광역시 중구 국채보상로 486 (동산동, 지상1층)",,053-424-3789,,90석(4실),10:30~21:00,"1,3,5째주 일요일",3~5대,"짬뽕 5,000 코스요리 50,000",한식,,128.5927842,35.8699233,2020-01-14
모범음식점,신단설렁탕,대구광역시 중구 공평로 72(동인2가),,053-256-5848,,42석,10:00~22:00,연중무휴,없음,"설렁탕:6,900원",한식,,128.601784,35.8702211,2020-01-14
골목투어,신숙(신주쿠),대구광역시 중구 중앙대로79길 16 (남일동),대구광역시 중구 남일동 129-1,053-256-8902,구 중앙시네 마옆 골목,44석,11:00-21:00,"토,일 휴무",유료주차장,"모밀 7,000",일식,2코스,128.5926573,35.86926527,2020-01-14
모범음식점,신짜오,대구광역시 중구 동성로3길 40 (삼덕동1가),,053-428-6544,,80석,11:00~22:30,연중무휴,없음,"베트남쌀국수:10,000원",양식&외국식,,128.597888,35.867187,2020-01-14
맛락|묵은맛명가,실비찜갈비,대구광역시 중구 동덕로36길 9-3(동인동1가),,053-424-3443,중구청-동인네거리,150석,10:00-24:00,"2, 4째주 월요일",유료주차장,"찜갈비 (호주산,미국산): 18,000 (한우): 28,000 찌개: 7,000",찜갈비,,128.6048017,35.8706819,2020-01-14
모범음식점,씨제이푸드빌(주)빕스수성교점,"대구광역시 중구 달구벌대로 2232, 1-3층 (대봉동)",,053-427-2997,,,,,,스테이크,양식&외국식,,128.607394,35.861814,2020-01-14
모범음식점,아사다라,"대구광역시 중구 명덕로 333, 11층 (대봉동)",,053-423-9911,대백프라자 11층,100석(2실),10:30~20:30,셋째 월요일,유료주차장,"한식 10,000",한식,,128.606345,35.85583,2020-01-14
맛락|골목투어,약전삼계탕,대구광역시 중구 달구벌대로415길 56 (장관동),대구광역시 중구 장관동 43-2,053-252-2473,한약도매시장앞,136석,09:00-21:00,명절,유료주차장,"한방삼계탕 14,000 한방송이삼계탕 20,000",한식,3코스,128.5902751,35.86883725,2020-01-14
맛락|골목투어,약전식당,대구광역시 중구 중앙대로77길 50-3(장관동),대구광역시 중구 남일동132,053-252-9684,진골목,80석(4실),12:00-21:00(쉬는시간 14:00~17:00),명절,유료주차장,"돌솥밥정식 15,000 무침회 40,000",한식,,128.5908052,35.86872415,2020-01-14
모범음식점,어청도회,"대구광역시 중구 국채보상로140길 34, 1층 (동인동2가)",,053-426-8300,,80석(5실),10:00~22:00,매주 일요일,7대,"회덮밥: 7,000 대구탕: 15,000",일식,,128.606166,35.867371,2020-01-14
맛락,에스파스,대구광역시 중구 국채보상로 552,,053-267-7788,중부경찰서 근처,36석,07:00~01:00,-,-,"버터프레첼 3,500 초코파이 3,500(1개)/11,000(3개세트) 앙터버 4,400",디저트,,128.5910394,35.87042649,2020-01-14
묵은맛명가,영발장,대구광역시 중구 봉산문화길 106 (봉산동),,053-425-3512,,,,,,"짜장면, 짬뽕",중식,,128.596719,35.864194,2020-01-14
맛락|골목투어,영생덕,대구광역시 중구 종로 39(종로2가),대구광역시 중구 종로2가 20,053-255-5777,화교소학교에서 만경관방향,90석(3실),11:00~22:30,-,-,"군만두 6,000 물만두 6,500",중식,2코스,128.591383,35.86940203,2020-01-14
맛락,예전손국수,대구광역시 중구 달구벌대로414길 23(남산동),대구광역시 중구 남산동 568-2,053-253-6656,현대백화점 건너편 라라코스트 옆골목80M안쪽,100석(2실),10:00~21:00,"매주 일요일, 명절",10대,"칼국수 6,000 찹쌀수제비 8,000 명태찜 7,000(2마리이상 주문가능)",한식,,128.589735,35.86491363,2020-01-14
맛락|묵은맛명가,옛집,대구광역시 중구 달성공원로6길 48-5(시장북로),대구광역시 중구 시장북로 120-2,053-554-4498,달성공원서문시장방향100M우측골목안,40석(6실),11:00~18:00,매주 일요일,유료주차장,"육개장 8,000",한식,,128.5817801,35.87212643,2020-01-14
맛락,오이쏘이,대구광역시 중구 봉산문화2길 14(봉산동),,070-4155-1380,대구초등학교 인근,15석,11:30~20:00(쉬는시간 15:30~17:30),"매주 일요일, 월요일",-,"차돌박이된장찌개 9,000 항정살덮밥 10,000 칠리새우덮밥 11,000",한식,,128.5959574,35.86321859,2020-01-14
맛락|모범음식점,올가닉신라,대구광역시 중구 대봉로 200-29(대봉동),대구광역시 중구 대봉동 128-2,053-421-1628,갤러리 신라 내,30석(4실),11:00-22:00,"매주 월요일, 명절",8대,"스페셜스테이크코스 83,000(150g) 파스타(코스) 39,000",양식&외국식,,128.603945,35.85657162,2020-01-14
골목투어,왕거미,대구광역시 중구 국채보상로 696-8(동인동),대구광역시 중구 동인동4가 179,053-427-6380,중구청건너편 횡단보도 옆골목,60석,17:00-23:00,없음,유료주차장,"생고기 35000 양지머리 35,000",한식,4코스,128.6067071,35.86851089,2020-01-14
모범음식점,우각식육식당,"대구광역시 중구 달구벌대로 2009 (동산동, 지상1,2층)",,053-252-8100,,140석(9실),10:00~22:00,명절 각각 이틀,5대,"갈비살(100g): 15,000 한우탕: 10,000",한식,,128.5870108,35.8630643,2020-01-14
묵은맛명가,원도매,대구광역시 중구 동성로12길 62 (공평동),,053-425-6298,,,,,,"등심, 불고기",한식,,128.599161,35.871021,2020-01-14
골목투어,원주통닭,대구광역시 중구 동성로6길 42-6 (공평동),대구광역시 중구 공평동56-3,053-424-5129,피제리아옆골목,76석 (2실),10:30-22:30,"1,4 월요일",유료주차장,"양념통닭 16,000",별식,3코스,128.5974819,35.86836944,2020-01-14
맛락|묵은맛명가,월성찜갈비,대구광역시 중구 동덕로36길 9-5(동인동1가),,053-424-6942,중구청-동인네거리,80석,09:00~23:30,없음,유료주차장,"찜갈비 (호주산,미국산): 18,000 (한우): 28,000 찌개: 7,000",찜갈비,,128.6048346,35.8707754,2020-01-14
맛락,유경식당,대구광역시 중구 경상감영길 101(포정동),대구광역시 중구 포정동21-3,053-252-5098,경상감영공원 근처,52석,10:00~21:30,매주 일요일,유료주차장,"대구탕 20,000 보리굴비 20,000 아구탕  12,000",한식,,128.5931032,35.87237778,2020-01-14
모범음식점,유닭스토리,대구광역시 중구 서성로 26 (계산동2가),,053-270-8786,매일신문사옆,86,10:00~22:00,설추석명절,13대,"삼계탕 12,000, 유황찜닭 25,000",한식,,128.587473,35.86887,2020-01-14
맛락|묵은맛명가,유진찜갈비,대구광역시 중구 동덕로36길 9-13(동인동1가),,053-425-7184,중구청-동인네거리,145석(1실),09:00-22:00,명절 각각 이틀,6대,"찜갈비 (호주산,미국산): 18,000 (한우): 28,000 찌개: 7,000",찜갈비,,128.6049069,35.8711067,2020-01-14
묵은맛명가,이모식당,대구광역시 중구 서성로13길 9 (서성로1가),,053-255-6971,,,,,,"국밥, 수육",한식,,128.586884,35.872213,2020-01-14
골목투어,적두병,대구광역시 중구 달성공원로8길 10 (대신동),대구광역시 중구 대신동5-2,053-353-2224,달성공원에서 북성로 방향으로 50미터,0,08:00-22:00,매주 일요일,유료주차장,적두병(1개) 500,별식,1코스,128.5809976,35.87336453,2020-01-14
맛락,전원,대구광역시 중구 동성로6길2-27 (삼덕동1가),대구광역시 중구 삼덕동1가4-10,053-424-8220,대백에서 통신골목 방향,80석,10:30~22:00,명절,유료주차장,"돈가스 6,500 함박스테이크 8,000",양식&외국식,,128.5954866,35.86796659,2020-01-14
모범음식점,전주맛집,"대구광역시 중구 명덕로 333, 11층 (대봉동)",,053-252-8030,,90석,-,백화점 정기휴무일,유료주차장,"전주비빔밥: 8,500 낙지돌솥비빔밥: 9,500",한식,,128.606398,35.855814,2020-01-14
맛락|모범음식점,정담,대구광역시 중구 관덕정길 13-18(남산동),,053-253-5263,,60석(2실),09:30~21:30,매주 일요일,없음,"정담정식 10,000 코다리찜 20,000~40,000",한식,,128.5916845,35.8648012,2020-01-14
골목투어|모범음식점,종로숯불갈비,대구광역시 중구 종로 26(종로2가),대구광역시 중구 종로2가 66-6,053-252-7197,동아쇼핑 옥외주차장 출구 맞은편,120석 (5실),10:00-22:00,"설,추석명절",10대,"한우갈비 20,000",한식,2코스,128.5922734,35.86825704,2020-01-14
골목투어,중앙떡볶이,대구광역시 중구 동성로2길 81 (동성로2가),대구광역시 중구 동성로2가70,053-424-7692,2.28공원 맞은편,26,11:00-20:00,"첫째주 월요일, 셋째주 목요일",유료주차장,"떡볶이 2,500",별식,3코스,128.5967777,35.86957552,2020-01-14
맛락|골목투어|묵은맛명가|모범음식점,중화반점,대구광역시 중구 중앙대로 406-12 (남일동),,053-425-3530,대구백화점 서쪽 건너편 골목 안,150석(4실),11:30~21:00,"첫째 셋째 월요일, 명절",없음,"특미야끼우동 9,000 탕수육 16,000/26,000",중식,,128.594407,35.8693,2020-01-14
골목투어|모범음식점,진골목,대구광역시 중구 진골목길 9-1(종로2가),대구광역시 중구 종로2가 66-5,053-253-3757,진골목,95석 (2실),10:30-22:00,"설,추석명절",유료주차장,"육개장 7,000 호박전 6,000",한식,2코스,128.5922421,35.86807272,2020-01-14
맛락|골목투어,진주통닭,대구광역시 중구 중앙대로 305(남산동),대구광역시 중구 남산1동 700-39,053-255-0270,남문시장 입구,80석,12:00-24:00,매주 일요일,유료주차장,"온마리통닭 16,000 켄터키치킨 18,000",별식,5코스,128.5919266,35.86060191,2020-01-14
맛락,차이,대구광역시 중구 동성로2길 18-15(삼덕동1가),,053-254-3965,중앙도서관 근처,32석(10실),12:00~22:00(쉬는시간 15:30~17:00),매주 월요일,-,"팟타이 15,000 아시안슈프림라이스 17,000",양식&외국식,,128.5971357,35.86677296,2020-01-14
모범음식점,착한다슬기,대구광역시 중구 약령길 83 (수동),,053-256-4885,,45석,11:00~21:00,매주 일요일,4대,"다슬기들깨탕: 6,000 다슬기부추전: 8,000",한식,,128.5892846,35.8686107,2020-01-14
맛락,청기와양곱창식당,대구광역시 중구 중앙대로81길 54(종로1가),,053-252-0089,만경관 길 건너,45석,17:00~02:00,"매주 일요일, 명절",없음,"소양 20,000(110g) 모듬 25,000(180g)",별식,,128.5906788,35.8696985,2020-01-14
모범음식점,청라,대구광역시 중구 서성로 29 (계산동1가),,053-255-1277,,112석(5실),10:00~22:00,명절 이틀,없음,"해물순두부: 8,000 청국장: 8,000",한식,,128.5868781,35.8692043,2020-01-14
맛락,카마타케제면소 대구본점,대구광역시 중구 남성로 59(동성로3가),,053-257-2165,중앙파출소 건너편,50석,11:30~21:00,명절,-,"차쿠텐붓카케우동 8,500 나베야끼우동 11,000 냉우동 8,000",일식,,128.5932692,35.8673558,2020-01-14
맛락,큐산,대구광역시 중구 동성로2길 49-18(공평동),,053-716-7599,대구백화점 근처,24석,11:30~22:00,-,-,"돈코츠라멘 7,000 차슈덮밥 7,000 마제멘 8,000",일식,,128.5957971,35.86842904,2020-01-14
맛락|골목투어|묵은맛명가,태산만두,대구광역시 중구 달구벌대로 2109-32 (덕산동),대구광역시 중구 덕산동124-10,053-424-0449,중앙파출소 뒤 화방골목근처,44석,10:00~22:00,"매주 월요일, 명절",유료주차장,"군만두 5,000 고기왕만두 5,000 찐교스 5,000",별식,3코스,128.5940879,35.8667294,2020-01-14
맛락,토끼정,대구광역시 중구 동성로2길 50-13(공평동),,053-422-8670,228기념공원과 롯데시네마 사잇길로 250여 미터 직진 후 네이처리퍼블릭 앞 골목으로 좌회전 후 40m,80석,11:30~22:00,명절,-,"크림카레우동 11,000 숯불구이반반  13,200",일식,,128.5974984,35.868137,2020-01-14
골목투어|모범음식점,통나무집,대구광역시 중구 중앙대로81길 23 (동일동),대구광역시 중구 동일동 21,053-252-6210,구 아카데미 건너편 골목안,84,11:00-01:00,연중무휴,유료주차장,"해물찜 30,000",한식,2코스,128.5927503,35.86893422,2020-01-14
모범음식점,푸르다코리아 경성상회,"대구광역시 중구 공평로 30(삼덕2가, 지상 2층)",,053-424-9967,,98석,17:00~05:00,연중무휴,없음,"경성갈비(소고기)반근: 18,000 돼지삼겹살반근: 18,000",한식,,128.6001843,35.8666031,2020-01-14
모범음식점,풍기인삼갈비 단,"대구광역시 중구 동덕로 177, 1층 (동인동2가)",,053-256-9292,,80석(2실),10:00~22:00,명절 연휴,20대,"삼계탕: 9,000 갈비탕: 7,000",한식,,128.604012,35.870485,2020-01-14
맛락,프랑스싸롱,대구광역시 중구 국채보상로131길 18-9(동인동2가),,,대구시청 근처,16석,17:00~02:00,매주 일요일,-,"슈크르트 23,000/27,000 연어타르타르 19,000 감바쓰 20,000",양식&외국식,,128.6023355,35.87055052,2020-01-14
맛락,하이타이,대구광역시 중구 공평로 53(공평동),,053-255-0562,삼덕지구대 인근,20석,11:30~21:30(쉬는시간 15:30~17:00),매주 월요일,-,"팟타이 10,000 똠양꿈 10,000~12,000",양식&외국식,,128.6003575,35.8679881,2020-01-14
모범음식점,한스델리,대구광역시 중구 중앙대로 386 (동성로3가),,053-428-3631,,100석,10:00~22:00,연중무휴,없음,"등심돈까스: 4,900 토마토미트파스타: 4,900",경양식,,128.5938227,35.8674811,2020-01-14
맛락,한옥집,대구광역시 중구 동덕로 168-2(동인동2가),,053-425-8653,중구청 근처,60석,10:00~21:00,명절,-,"김치찜 7,000 김치찌개 7,000",한식,,128.604788,35.86978106,2020-01-14
모범음식점,함흥면옥,"대구광역시 중구 명덕로 333, 11층 (대봉동)",,053-420-8031,,88석(1실),10:30~20:30,백화점 정기휴무일,유료주차장,"상추샤브샤브: 12,000 갈비탕: 9,500",별식,,128.606377,35.85579,2020-01-14
골목투어,해뜨는 아침,대구광역시 중구 남성로 56(동성로3가),,053-253-1777,약전골목에 위치,60석,11:30~21:30,명절,없음,"""돈까스: 8,000 청국장: 7,500""",한식,,128.5927323,35.8670809,2020-01-14
골목투어,행복식당,대구광역시 중구 달구벌대로 2115-2(봉산동),대구광역시 중구 봉산동 37-33,053-427-2232,반월당 외환은행 골목,70석,11:00-24:00,"설,추석명절",유료주차장,"동태전 8,000 호박전 6,000",술한잔하기 좋은 집,4코스,128.5949508,35.86567804,2020-01-14
모범음식점,현대옥 경대병원점,대구광역시 중구 동덕로 141(삼덕동2가),,053-425-8253,한국은행 맞은편,110,24시간,설추석명절,6대,콩나물해장국,한식,,128.603396,35.867254,2020-01-14
모범음식점,현풍닭칼국수 동성로점,대구광역시 중구 동성로1길 65(봉산동),,053-256-9392,,60석,11:00~21:00,둘째주 넷째주 월요일,없음,"닭칼국수: 6,000원",한식,,128.5969703,35.8656403,2020-01-14
모범음식점,화림보쌈,"대구광역시 중구 명덕로35길 111, 1층 (남산동)",,053-255-1877,,,,,,돼지보쌈,한식,,128.589948,35.861614,2020-01-14
모범음식점,황소,"대구광역시 중구 북성로 104-11, 1층 (향촌동)",,053-252-0110,,52석(1실),11:00~23:00,명절 각각 이틀,유료주차장,"한우쪽등심(100g): 15,000 문경약돌돼지(100g): 8,000",한식,,128.593975,35.873839,2020-01-14
맛락|모범음식점,황소식당,대구광역시 중구 중앙대로 434-6(포정동),대구광역시 중구 포정동 69-1,053-421-9930,롯데영프라자 뒷골목 지하철 3번 출구,50석(2실),11:00-24:00,명절,유료주차장,"생고기 50,000 육회 50,000",한식,,128.5946067,35.87184868,2020-01-14
모범음식점,힛또,"대구광역시 중구 명덕로 333 (대봉동, 지상11층)",,053-256-6868,대백프라자 11층,100석(1실),10:30~20:30,백화점 정기휴무일,유료주차장,"히레까스:11,000 생선초밥정식: 23,000",일식,,128.606378,35.855809,2020-01-14
